<?xml version="1.0" encoding="UTF-8"?>
<kml xmlns="http://earth.google.com/kml/2.1">
	<Document>
		<name>regiones_con_mas_tweets_reales.kml</name>

		<Placemark>
			<name>Washington, D.C.</name>
			<region>Washington, D.C.</region>
			<Point>
				<coordinates>-77.0363693,38.8951111</coordinates>
			</Point>
		</Placemark>

		<Placemark>
			<name>London</name>
			<region>London</region>
			<Point>
				<coordinates>-0.12574,51.5085297</coordinates>
			</Point>
		</Placemark>

		<Placemark>
			<name>New York</name>
			<region>New York</region>
			<Point>
				<coordinates>-74.0059662,40.7142715</coordinates>
			</Point>
		</Placemark>

		<Placemark>
			<name>Abuya</name>
			<region>Abuya</region>
			<Point>
				<coordinates>7.48321,9.06447</coordinates>
			</Point>
		</Placemark>

		<Placemark>
			<name>Nueva Delhi</name>
			<region>Nueva Delhi</region>
			<Point>
				<coordinates>77.2314911,28.6519508</coordinates>
			</Point>
		</Placemark>

		<Placemark>
			<name>Canberra</name>
			<region>Canberra</region>
			<Point>
				<coordinates>149.128067,-35.2834587</coordinates>
			</Point>
		</Placemark>

		<Placemark>
			<name>Ottawa</name>
			<region>Ottawa</region>
			<Point>
				<coordinates>-75.6981201,45.411171</coordinates>
			</Point>
		</Placemark>

		<Placemark>
			<name>California</name>
			<region>California</region>
			<Point>
				<coordinates>-123.032,37.7272</coordinates>
			</Point>
		</Placemark>

		<Placemark>
			<name>Chicago</name>
			<region>Chicago</region>
			<Point>
				<coordinates>-87.6500473,41.850029</coordinates>
			</Point>
		</Placemark>

		<Placemark>
			<name>Mumbai</name>
			<region>Mumbai</region>
			<Point>
				<coordinates>72.8762,19.0712</coordinates>
			</Point>
		</Placemark>

		<Placemark>
			<name>Los Angeles</name>
			<region>Los Angeles</region>
			<Point>
				<coordinates>-118.2436829,34.0522308</coordinates>
			</Point>
		</Placemark>

		<Placemark>
			<name>San Francisco</name>
			<region>San Francisco</region>
			<Point>
				<coordinates>-123.032,37.7272</coordinates>
			</Point>
		</Placemark>

		<Placemark>
			<name>Yakarta</name>
			<region>Yakarta</region>
			<Point>
				<coordinates>106.829,-6.20199</coordinates>
			</Point>
		</Placemark>

		<Placemark>
			<name>New Jersey</name>
			<region>New Jersey</region>
			<Point>
				<coordinates>-74.0776367,40.7281609</coordinates>
			</Point>
		</Placemark>

		<Placemark>
			<name>Texas</name>
			<region>Texas</region>
			<Point>
				<coordinates>-92.28904,35.32369</coordinates>
			</Point>
		</Placemark>

		<Placemark>
			<name>Colorado</name>
			<region>Colorado</region>
			<Point>
				<coordinates>-104.8213577,38.8338814</coordinates>
			</Point>
		</Placemark>

		<Placemark>
			<name>Pretoria</name>
			<region>Pretoria</region>
			<Point>
				<coordinates>28.18783,-25.7448597</coordinates>
			</Point>
		</Placemark>

		<Placemark>
			<name>Oregon</name>
			<region>Oregon</region>
			<Point>
				<coordinates>-120.50139,44.00013</coordinates>
			</Point>
		</Placemark>

		<Placemark>
			<name>Atlanta</name>
			<region>Atlanta</region>
			<Point>
				<coordinates>-84.38993,33.74511</coordinates>
			</Point>
		</Placemark>

		<Placemark>
			<name>Dublín</name>
			<region>Dublín</region>
			<Point>
				<coordinates>-6.26761,53.3434</coordinates>
			</Point>
		</Placemark>

		<Placemark>
			<name>Sacramento</name>
			<region>Sacramento</region>
			<Point>
				<coordinates>-121.4944,38.5815697</coordinates>
			</Point>
		</Placemark>

		<Placemark>
			<name>Nairobi</name>
			<region>Nairobi</region>
			<Point>
				<coordinates>36.82,-1.29233</coordinates>
			</Point>
		</Placemark>

		<Placemark>
			<name>Nashville</name>
			<region>Nashville</region>
			<Point>
				<coordinates>-86.7844391,36.1658897</coordinates>
			</Point>
		</Placemark>

		<Placemark>
			<name>Oklahoma</name>
			<region>Oklahoma</region>
			<Point>
				<coordinates>-97.5164337,35.4675598</coordinates>
			</Point>
		</Placemark>

		<Placemark>
			<name>Houston</name>
			<region>Houston</region>
			<Point>
				<coordinates>-95.3632736,29.7632809</coordinates>
			</Point>
		</Placemark>

		<Placemark>
			<name>Seattle</name>
			<region>Seattle</region>
			<Point>
				<coordinates>-122.3320694,47.6062088</coordinates>
			</Point>
		</Placemark>

		<Placemark>
			<name>Memphis</name>
			<region>Memphis</region>
			<Point>
				<coordinates>-90.0489807,35.1495285</coordinates>
			</Point>
		</Placemark>

		<Placemark>
			<name>Toronto</name>
			<region>Toronto</region>
			<Point>
				<coordinates>-79.4162979,43.7001114</coordinates>
			</Point>
		</Placemark>

		<Placemark>
			<name>San Diego</name>
			<region>San Diego</region>
			<Point>
				<coordinates>-117.1572571,32.7153282</coordinates>
			</Point>
		</Placemark>

		<Placemark>
			<name>Dallas</name>
			<region>Dallas</region>
			<Point>
				<coordinates>-96.8066711,32.7830582</coordinates>
			</Point>
		</Placemark>

	</Document>
</kml>